{
  "pets": [
    {
      "id": "x8LR0uWBnZ2Htie6Kb3KB",
      "found": "false",
      "type": "dog",
      "name": "Mile",
      "breed": "Haski.",
      "phoneNumber": "564115420",
      "date": "datum",
      "description": "Izgubljen kod parka",
      "lat": 44.31753736843396,
      "lng": 22.90800615484579,
      "photoUrl": "ssfg"
    },
    {
      "id": "mt98C2G7kNqTl77V5wVhA",
      "name": "Paja",
      "description": "Vrlo mlad pas izgubljen kod parka",
      "found": false,
      "phoneNumber": "4524515",
      "photoUrl": "",
      "type": 0,
      "date": "18.9.2022.",
      "breed": "Sarplaninac",
      "lat": 42.31753736843396,
      "lng": 20.90800615484579
    },
    {
      "id": "88jifcQ6zxXOpD_qKKvwt",
      "name": "Pire",
      "description": "Mlad pas izgublejn kod parka danas oko 14h",
      "found": false,
      "phoneNumber": "4524515",
      "photoUrl": "",
      "type": 0,
      "date": "18.9.2022.",
      "breed": "Zlatni retriver",
      "lat": 43.31753736843396,
      "lng": 21.90800615484579
    },
    {
      "id": "GXbUrmZNl_mJxksKfxMBZ",
      "ownerName": "",
      "name": "Cvrle",
      "description": "izgubio sam ga u ovom krugu ",
      "found": false,
      "phoneNumber": "81282284",
      "photoUrl": "",
      "type": 0,
      "date": "19.9.2022.",
      "breed": "Nemacki ovcar",
      "lat": 43.32311605558201,
      "lng": 21.90985313232423
    },
    {
      "id": "btwiQoDzQ9rVoJY708Cnr",
      "ownerName": "",
      "name": "sffsd",
      "description": "gsfsfg",
      "found": false,
      "phoneNumber": "34342",
      "photoUrl": "",
      "type": 0,
      "date": "19.9.2022.",
      "breed": "sdfsfd",
      "lat": 43.32186721308837,
      "lng": 21.910196455078136
    }
  ],
  "breeds": [
    {
      "id": "1",
      "type": "dog",
      "name": "Haski"
    },
    {
      "id": "2",
      "type": "dog",
      "name": "Zlatni retriver"
    },
    {
      "id": "3",
      "type": "dog",
      "name": "Nemacki ovcar"
    },
    {
      "id": "4",
      "type": "dog",
      "name": "Rotvajler"
    },
    {
      "id": "5",
      "type": "cat",
      "name": "Ruska plava macka"
    },
    {
      "id": "6",
      "type": "cat",
      "name": "Sijamska"
    },
    {
      "id": "7",
      "type": "cat",
      "name": "Persijska"
    },
    {
      "id": "8",
      "type": "cat",
      "name": "Sfinga"
    }
  ]
}
